<?xml version="1.0" encoding="utf-8"?>
<ArrayOfVolunteer xmlns:xsi="http://www.w3.org/2001/XMLSchema-instance" xmlns:xsd="http://www.w3.org/2001/XMLSchema">
  <Volunteer>
    <Id>227402286</Id>
    <Name>David Cohen</Name>
    <Phone>0502807176</Phone>
    <Email>davidcohen@gmail.com</Email>
    <Password>4bcfa753edfef1271b4f22cdaadae8c0d8d9fb130deb542cad173eda06730812</Password>
    <Address>Tokyo Tower, Tokyo, Japan</Address>
    <Latitude>27.1751</Latitude>
    <Longitude>34.7806</Longitude>
    <Jobs>Administrator</Jobs>
    <active>true</active>
    <MaxDistance>11</MaxDistance>
    <DistanceType>AirDistance</DistanceType>
  </Volunteer>
  <Volunteer>
    <Id>241347574</Id>
    <Name>Sarah Levi</Name>
    <Phone>0506700604</Phone>
    <Email>sarahlevi@gmail.com</Email>
    <Password>4b2031a5f183b5ad9a3f99baeac75346e0538d20fb54ec6a9b161d8c122f02f0</Password>
    <Address>Taj Mahal, Agra, India</Address>
    <Latitude>35.6586</Latitude>
    <Longitude>151.2153</Longitude>
    <Jobs>Worker</Jobs>
    <active>true</active>
    <MaxDistance>10</MaxDistance>
    <DistanceType>AirDistance</DistanceType>
  </Volunteer>
  <Volunteer>
    <Id>290943976</Id>
    <Name>Michael Ben-David</Name>
    <Phone>0503387635</Phone>
    <Email>michaelben-david@gmail.com</Email>
    <Password>0a6cbc7e95422bda23dd005ae5b9b081b38718a34f97493c3fdf61c4f7fed716</Password>
    <Address>Brandenburg Gate, Berlin, Germany</Address>
    <Latitude>51.5238</Latitude>
    <Longitude>139.7454</Longitude>
    <Jobs>Worker</Jobs>
    <active>true</active>
    <MaxDistance>38</MaxDistance>
    <DistanceType>AirDistance</DistanceType>
  </Volunteer>
  <Volunteer>
    <Id>236790341</Id>
    <Name>Rachel Gold</Name>
    <Phone>0505602419</Phone>
    <Email>rachelgold@gmail.com</Email>
    <Password>e46ed7127b7856e76cbfb38ed95aa1de88e9a5b03540eeb04477420a3aa1d1e3</Password>
    <Address>1600 Amphitheatre Parkway, Mountain View, CA, USA</Address>
    <Latitude>41.4036</Latitude>
    <Longitude>2.1744</Longitude>
    <Jobs>Worker</Jobs>
    <active>true</active>
    <MaxDistance>21</MaxDistance>
    <DistanceType>AirDistance</DistanceType>
  </Volunteer>
  <Volunteer>
    <Id>294598230</Id>
    <Name>Daniel Green</Name>
    <Phone>0506305737</Phone>
    <Email>danielgreen@gmail.com</Email>
    <Password>9158dc327be84ed32aebb02a5a8fea5cfbd9805fadf22b3ec0d58e847d53f3a1</Password>
    <Address>Taj Mahal, Agra, India</Address>
    <Latitude>27.1751</Latitude>
    <Longitude>34.7806</Longitude>
    <Jobs>Worker</Jobs>
    <active>true</active>
    <MaxDistance>10</MaxDistance>
    <DistanceType>AirDistance</DistanceType>
  </Volunteer>
  <Volunteer>
    <Id>370910317</Id>
    <Name>Emma Brown</Name>
    <Phone>0505412100</Phone>
    <Email>emmabrown@gmail.com</Email>
    <Password>14864511f35e06ac9a1555d7c827bc93e91143690b90be346ccd3a2dabcc5074</Password>
    <Address>1600 Amphitheatre Parkway, Mountain View, CA, USA</Address>
    <Latitude>52.5163</Latitude>
    <Longitude>-0.1586</Longitude>
    <Jobs>Worker</Jobs>
    <active>true</active>
    <MaxDistance>21</MaxDistance>
    <DistanceType>AirDistance</DistanceType>
  </Volunteer>
  <Volunteer>
    <Id>257714584</Id>
    <Name>James White</Name>
    <Phone>0502384275</Phone>
    <Email>jameswhite@gmail.com</Email>
    <Password>fc565f896ca6603692320e63ddd084f094168dabff293fa269dd3d56a744eeef</Password>
    <Address>Tokyo Tower, Tokyo, Japan</Address>
    <Latitude>35.6586</Latitude>
    <Longitude>139.7454</Longitude>
    <Jobs>Worker</Jobs>
    <active>true</active>
    <MaxDistance>11</MaxDistance>
    <DistanceType>AirDistance</DistanceType>
  </Volunteer>
  <Volunteer>
    <Id>236277166</Id>
    <Name>Sophia Black</Name>
    <Phone>0505384458</Phone>
    <Email>sophiablack@gmail.com</Email>
    <Password>7cb7572a2e79a00f49843c00fe49eda2858d63c5f512994b3a790d73c6962c83</Password>
    <Address>Tokyo Tower, Tokyo, Japan</Address>
    <Latitude>48.8584</Latitude>
    <Longitude>34.7806</Longitude>
    <Jobs>Worker</Jobs>
    <active>false</active>
    <MaxDistance>29</MaxDistance>
    <DistanceType>AirDistance</DistanceType>
  </Volunteer>
  <Volunteer>
    <Id>338961162</Id>
    <Name>Benjamin Blue</Name>
    <Phone>0505924887</Phone>
    <Email>benjaminblue@gmail.com</Email>
    <Password>c515c3f25177a1923c5e7823086b8810b10953315407365fe38cb358b948e94a</Password>
    <Address>Tokyo Tower, Tokyo, Japan</Address>
    <Latitude>32.0809</Latitude>
    <Longitude>2.1744</Longitude>
    <Jobs>Worker</Jobs>
    <active>true</active>
    <MaxDistance>35</MaxDistance>
    <DistanceType>AirDistance</DistanceType>
  </Volunteer>
  <Volunteer>
    <Id>324103613</Id>
    <Name>Olivia Silver</Name>
    <Phone>0502374538</Phone>
    <Email>oliviasilver@gmail.com</Email>
    <Password>a6e8ed6e733cde63d754e5251a0ac8ac4c0bf356f147e89e340db2b4b909b328</Password>
    <Address>Sagrada Familia, Barcelona, Spain</Address>
    <Latitude>48.8584</Latitude>
    <Longitude>78.0421</Longitude>
    <Jobs>Worker</Jobs>
    <active>false</active>
    <MaxDistance>21</MaxDistance>
    <DistanceType>AirDistance</DistanceType>
  </Volunteer>
  <Volunteer>
    <Id>268508199</Id>
    <Name>Noah Gray</Name>
    <Phone>0507679037</Phone>
    <Email>noahgray@gmail.com</Email>
    <Password>a5eeb540091b475eff59ba1c04d0c96d46c70ecf2e723249c920a4e74e5bcc6a</Password>
    <Address>5th Avenue, New York, NY, USA</Address>
    <Latitude>52.5163</Latitude>
    <Longitude>78.0421</Longitude>
    <Jobs>Worker</Jobs>
    <active>true</active>
    <MaxDistance>20</MaxDistance>
    <DistanceType>AirDistance</DistanceType>
  </Volunteer>
  <Volunteer>
    <Id>354062234</Id>
    <Name>Emily Rose</Name>
    <Phone>0509537194</Phone>
    <Email>emilyrose@gmail.com</Email>
    <Password>d71f655a556de2cd72b0fedee4af311f07d53b8b6508af5e2fa021f93e763c46</Password>
    <Address>Kikar Rabin, Tel Aviv-Yafo, Israel</Address>
    <Latitude>40.775</Latitude>
    <Longitude>13.3777</Longitude>
    <Jobs>Worker</Jobs>
    <active>true</active>
    <MaxDistance>26</MaxDistance>
    <DistanceType>AirDistance</DistanceType>
  </Volunteer>
  <Volunteer>
    <Id>359422029</Id>
    <Name>Ethan Adler</Name>
    <Phone>0504401133</Phone>
    <Email>ethanadler@gmail.com</Email>
    <Password>1ca4956c1f8d8d626250591a25ff001629d4d92fc10395d207cb5af9f871dc04</Password>
    <Address>Kikar Rabin, Tel Aviv-Yafo, Israel</Address>
    <Latitude>41.4036</Latitude>
    <Longitude>13.3777</Longitude>
    <Jobs>Worker</Jobs>
    <active>false</active>
    <MaxDistance>16</MaxDistance>
    <DistanceType>AirDistance</DistanceType>
  </Volunteer>
  <Volunteer>
    <Id>286928569</Id>
    <Name>Mia Kaplan</Name>
    <Phone>0502336749</Phone>
    <Email>miakaplan@gmail.com</Email>
    <Password>26def29df5bd89afd77b8d07665e1e36b72fe47a1821899bcbf1c7091c5fef63</Password>
    <Address>Taj Mahal, Agra, India</Address>
    <Latitude>37.422</Latitude>
    <Longitude>2.1744</Longitude>
    <Jobs>Worker</Jobs>
    <active>true</active>
    <MaxDistance>21</MaxDistance>
    <DistanceType>AirDistance</DistanceType>
  </Volunteer>
  <Volunteer>
    <Id>203864301</Id>
    <Name>Jacob Fisher</Name>
    <Phone>0504558849</Phone>
    <Email>jacobfisher@gmail.com</Email>
    <Password>9788979df501fb01ed54e91f8739f4d63af537c21edc6906946d06ef238702dc</Password>
    <Address>Tokyo Tower, Tokyo, Japan</Address>
    <Latitude>-33.8568</Latitude>
    <Longitude>-0.1586</Longitude>
    <Jobs>Worker</Jobs>
    <active>false</active>
    <MaxDistance>48</MaxDistance>
    <DistanceType>AirDistance</DistanceType>
  </Volunteer>
	<Volunteer>
		<Id>327883138</Id>
		<Name>aa</Name>
		<Phone>1234567890</Phone>
		<Email>c@c.com</Email>
		<Password>588010cc6e63c96a12ab178b1aef73d6a1ff20626053a54d361bc2d8e30a3877</Password>
		<Address>aa</Address>
		<Latitude>51.5331324</Latitude>
		<Longitude>5.6437768</Longitude>
		<Jobs>Administrator</Jobs>
		<active>true</active>
		<MaxDistance>11</MaxDistance>
		<DistanceType>AirDistance</DistanceType>
	</Volunteer>
	<Volunteer>
		<Id>327842290</Id>
		<Name>bbvvvvvv</Name>
		<Phone>1234567890</Phone>
		<Email>s@s.com</Email>
		<Password>29ee2d8627df43f8c6641e771e82af9c2439eb4dedea849870758b303bf74905</Password>
		<Address>aa</Address>
		<Latitude>51.5331324</Latitude>
		<Longitude>5.6437768</Longitude>
		<Jobs>Worker</Jobs>
		<active>true</active>
		<MaxDistance xsi:nil="true" />
		<DistanceType>AirDistance</DistanceType>
	</Volunteer>
	<Volunteer>
		<Id>323782508</Id>
		<Name />
		<Phone />
		<Email />
		<Password>a9d6466202bd0006cca54a54e100afa9ef5ff219ace79316a756b9ed3e943e0a</Password>
		<Address>aa</Address>
		<Latitude>51.5331324</Latitude>
		<Longitude>5.6437768</Longitude>
		<Jobs>Worker</Jobs>
		<active>true</active>
		<MaxDistance xsi:nil="true" />
		<DistanceType>AirDistance</DistanceType>
	</Volunteer>
	<Volunteer>
		<Id>65678765</Id>
		<Name>aaaaaaaa</Name>
		<Phone />
		<Email />
		<Password>62f59256083d348dd1e6af18692017512a2814032ac776f011eaced168e88d1d</Password>
		<Address>aa</Address>
		<Latitude>51.5331324</Latitude>
		<Longitude>5.6437768</Longitude>
		<Jobs>Worker</Jobs>
		<active>false</active>
		<MaxDistance xsi:nil="true" />
		<DistanceType>AirDistance</DistanceType>
	</Volunteer>
</ArrayOfVolunteer>