<?xml version="1.0" encoding="utf-8"?>
<ArrayOfVolunteer xmlns:xsi="http://www.w3.org/2001/XMLSchema-instance" xmlns:xsd="http://www.w3.org/2001/XMLSchema">
  <Volunteer>
    <Id>335130886</Id>
    <Name>David Cohen</Name>
    <Phone>050-2347734</Phone>
    <Email>davidcohen@gmail.com</Email>
    <Password>Dav734</Password>
    <Address>Brandenburg Gate, Berlin, Germany</Address>
    <Latitude>41.4036</Latitude>
    <Longitude>34.7806</Longitude>
    <Jobs>Administrator</Jobs>
    <active>false</active>
    <MaxDistance>22</MaxDistance>
    <DistanceType>AirDistance</DistanceType>
  </Volunteer>
  <Volunteer>
    <Id>262519754</Id>
    <Name>Sarah Levi</Name>
    <Phone>050-9184666</Phone>
    <Email>sarahlevi@gmail.com</Email>
    <Password>Sar666</Password>
    <Address>Sydney Opera House, Sydney, Australia</Address>
    <Latitude>52.5163</Latitude>
    <Longitude>2.1744</Longitude>
    <Jobs>Worker</Jobs>
    <active>true</active>
    <MaxDistance>41</MaxDistance>
    <DistanceType>AirDistance</DistanceType>
  </Volunteer>
  <Volunteer>
    <Id>397248428</Id>
    <Name>Michael Ben-David</Name>
    <Phone>050-7044308</Phone>
    <Email>michaelben-david@gmail.com</Email>
    <Password>Mic308</Password>
    <Address>1600 Amphitheatre Parkway, Mountain View, CA, USA</Address>
    <Latitude>37.422</Latitude>
    <Longitude>34.7806</Longitude>
    <Jobs>Worker</Jobs>
    <active>true</active>
    <MaxDistance>38</MaxDistance>
    <DistanceType>AirDistance</DistanceType>
  </Volunteer>
  <Volunteer>
    <Id>230147555</Id>
    <Name>Rachel Gold</Name>
    <Phone>050-4050312</Phone>
    <Email>rachelgold@gmail.com</Email>
    <Password>Rac312</Password>
    <Address>Sagrada Familia, Barcelona, Spain</Address>
    <Latitude>40.775</Latitude>
    <Longitude>13.3777</Longitude>
    <Jobs>Worker</Jobs>
    <active>false</active>
    <MaxDistance>37</MaxDistance>
    <DistanceType>AirDistance</DistanceType>
  </Volunteer>
  <Volunteer>
    <Id>345982177</Id>
    <Name>Daniel Green</Name>
    <Phone>050-3163106</Phone>
    <Email>danielgreen@gmail.com</Email>
    <Password>Dan106</Password>
    <Address>5th Avenue, New York, NY, USA</Address>
    <Latitude>-33.8568</Latitude>
    <Longitude>139.7454</Longitude>
    <Jobs>Worker</Jobs>
    <active>true</active>
    <MaxDistance>24</MaxDistance>
    <DistanceType>AirDistance</DistanceType>
  </Volunteer>
  <Volunteer>
    <Id>241560002</Id>
    <Name>Emma Brown</Name>
    <Phone>050-9660770</Phone>
    <Email>emmabrown@gmail.com</Email>
    <Password>Emm770</Password>
    <Address>Sagrada Familia, Barcelona, Spain</Address>
    <Latitude>41.4036</Latitude>
    <Longitude>151.2153</Longitude>
    <Jobs>Worker</Jobs>
    <active>true</active>
    <MaxDistance>47</MaxDistance>
    <DistanceType>AirDistance</DistanceType>
  </Volunteer>
  <Volunteer>
    <Id>246780035</Id>
    <Name>James White</Name>
    <Phone>050-6464968</Phone>
    <Email>jameswhite@gmail.com</Email>
    <Password>Jam968</Password>
    <Address>Eiffel Tower, Champ de Mars, Paris, France</Address>
    <Latitude>-33.8568</Latitude>
    <Longitude>78.0421</Longitude>
    <Jobs>Worker</Jobs>
    <active>true</active>
    <MaxDistance>44</MaxDistance>
    <DistanceType>AirDistance</DistanceType>
  </Volunteer>
  <Volunteer>
    <Id>278070230</Id>
    <Name>Sophia Black</Name>
    <Phone>050-9087036</Phone>
    <Email>sophiablack@gmail.com</Email>
    <Password>Sop036</Password>
    <Address>Kikar Rabin, Tel Aviv-Yafo, Israel</Address>
    <Latitude>41.4036</Latitude>
    <Longitude>-73.9654</Longitude>
    <Jobs>Worker</Jobs>
    <active>true</active>
    <MaxDistance>24</MaxDistance>
    <DistanceType>AirDistance</DistanceType>
  </Volunteer>
  <Volunteer>
    <Id>314773367</Id>
    <Name>Benjamin Blue</Name>
    <Phone>050-6518704</Phone>
    <Email>benjaminblue@gmail.com</Email>
    <Password>Ben704</Password>
    <Address>221B Baker Street, London, NW1 6XE, UK</Address>
    <Latitude>-33.8568</Latitude>
    <Longitude>34.7806</Longitude>
    <Jobs>Worker</Jobs>
    <active>true</active>
    <MaxDistance>15</MaxDistance>
    <DistanceType>AirDistance</DistanceType>
  </Volunteer>
  <Volunteer>
    <Id>377809710</Id>
    <Name>Olivia Silver</Name>
    <Phone>050-4106025</Phone>
    <Email>oliviasilver@gmail.com</Email>
    <Password>Oli025</Password>
    <Address>221B Baker Street, London, NW1 6XE, UK</Address>
    <Latitude>41.4036</Latitude>
    <Longitude>-73.9654</Longitude>
    <Jobs>Worker</Jobs>
    <active>true</active>
    <MaxDistance>15</MaxDistance>
    <DistanceType>AirDistance</DistanceType>
  </Volunteer>
  <Volunteer>
    <Id>208788075</Id>
    <Name>Noah Gray</Name>
    <Phone>050-2458088</Phone>
    <Email>noahgray@gmail.com</Email>
    <Password>Noa088</Password>
    <Address>5th Avenue, New York, NY, USA</Address>
    <Latitude>35.6586</Latitude>
    <Longitude>139.7454</Longitude>
    <Jobs>Worker</Jobs>
    <active>true</active>
    <MaxDistance>12</MaxDistance>
    <DistanceType>AirDistance</DistanceType>
  </Volunteer>
  <Volunteer>
    <Id>365731983</Id>
    <Name>Emily Rose</Name>
    <Phone>050-1673020</Phone>
    <Email>emilyrose@gmail.com</Email>
    <Password>Emi020</Password>
    <Address>5th Avenue, New York, NY, USA</Address>
    <Latitude>35.6586</Latitude>
    <Longitude>13.3777</Longitude>
    <Jobs>Worker</Jobs>
    <active>true</active>
    <MaxDistance>48</MaxDistance>
    <DistanceType>AirDistance</DistanceType>
  </Volunteer>
  <Volunteer>
    <Id>392610689</Id>
    <Name>Ethan Adler</Name>
    <Phone>050-9675580</Phone>
    <Email>ethanadler@gmail.com</Email>
    <Password>Eth580</Password>
    <Address>Brandenburg Gate, Berlin, Germany</Address>
    <Latitude>51.5238</Latitude>
    <Longitude>-122.0841</Longitude>
    <Jobs>Worker</Jobs>
    <active>true</active>
    <MaxDistance>16</MaxDistance>
    <DistanceType>AirDistance</DistanceType>
  </Volunteer>
  <Volunteer>
    <Id>241307420</Id>
    <Name>Mia Kaplan</Name>
    <Phone>050-2213072</Phone>
    <Email>miakaplan@gmail.com</Email>
    <Password>Mia072</Password>
    <Address>1600 Amphitheatre Parkway, Mountain View, CA, USA</Address>
    <Latitude>48.8584</Latitude>
    <Longitude>-122.0841</Longitude>
    <Jobs>Worker</Jobs>
    <active>false</active>
    <MaxDistance>49</MaxDistance>
    <DistanceType>AirDistance</DistanceType>
  </Volunteer>
  <Volunteer>
    <Id>264022385</Id>
    <Name>Jacob Fisher</Name>
    <Phone>050-2562518</Phone>
    <Email>jacobfisher@gmail.com</Email>
    <Password>Jac518</Password>
    <Address>Sydney Opera House, Sydney, Australia</Address>
    <Latitude>37.422</Latitude>
    <Longitude>34.7806</Longitude>
    <Jobs>Worker</Jobs>
    <active>true</active>
    <MaxDistance>42</MaxDistance>
    <DistanceType>AirDistance</DistanceType>
  </Volunteer>
</ArrayOfVolunteer>