<?xml version="1.0" encoding="utf-8"?>
<ArrayOfVolunteer xmlns:xsi="http://www.w3.org/2001/XMLSchema-instance" xmlns:xsd="http://www.w3.org/2001/XMLSchema">
  <Volunteer>
    <Id>392881389</Id>
    <Name>David Cohen</Name>
    <Phone>0504882719</Phone>
    <Email>davidcohen@gmail.com</Email>
    <Password>a3af495d639ecf5c212f9ac3a08419992884cd8b3cb1c885d7ed44870a1a4636</Password>
    <Address>5th Avenue, New York, NY, USA</Address>
    <Latitude>41.4036</Latitude>
    <Longitude>34.7806</Longitude>
    <Jobs>Administrator</Jobs>
    <active>false</active>
    <MaxDistance>44</MaxDistance>
    <DistanceType>AirDistance</DistanceType>
  </Volunteer>
  <Volunteer>
    <Id>203929864</Id>
    <Name>Sarah Levi</Name>
    <Phone>0504386345</Phone>
    <Email>sarahlevi@gmail.com</Email>
    <Password>aaea1f76fbd25663e7f3ba158c7f684a475d021e890c6895c99c1a6cc9de8c04</Password>
    <Address>Kikar Rabin, Tel Aviv-Yafo, Israel</Address>
    <Latitude>52.5163</Latitude>
    <Longitude>2.2945</Longitude>
    <Jobs>Worker</Jobs>
    <active>true</active>
    <MaxDistance>30</MaxDistance>
    <DistanceType>AirDistance</DistanceType>
  </Volunteer>
  <Volunteer>
    <Id>206087025</Id>
    <Name>Michael Ben-David</Name>
    <Phone>0505580182</Phone>
    <Email>michaelben-david@gmail.com</Email>
    <Password>fb1749eecf34e1d1f85b3b24efe1f27ca6376db82f4a7652a411e68208cbe311</Password>
    <Address>1600 Amphitheatre Parkway, Mountain View, CA, USA</Address>
    <Latitude>37.422</Latitude>
    <Longitude>139.7454</Longitude>
    <Jobs>Worker</Jobs>
    <active>true</active>
    <MaxDistance>26</MaxDistance>
    <DistanceType>AirDistance</DistanceType>
  </Volunteer>
  <Volunteer>
    <Id>278830443</Id>
    <Name>Rachel Gold</Name>
    <Phone>0501741762</Phone>
    <Email>rachelgold@gmail.com</Email>
    <Password>db3eca976c7a8d4b2c1cd44b1852bfa86e70da812298a9d0106fb20a3da2d33a</Password>
    <Address>5th Avenue, New York, NY, USA</Address>
    <Latitude>32.0809</Latitude>
    <Longitude>-0.1586</Longitude>
    <Jobs>Worker</Jobs>
    <active>true</active>
    <MaxDistance>21</MaxDistance>
    <DistanceType>AirDistance</DistanceType>
  </Volunteer>
  <Volunteer>
    <Id>349467266</Id>
    <Name>Daniel Green</Name>
    <Phone>0502719632</Phone>
    <Email>danielgreen@gmail.com</Email>
    <Password>afc8d5dec4fecbd421c998bb139258268a7dea27cc6178b299965f8e19a0400b</Password>
    <Address>5th Avenue, New York, NY, USA</Address>
    <Latitude>37.422</Latitude>
    <Longitude>139.7454</Longitude>
    <Jobs>Worker</Jobs>
    <active>true</active>
    <MaxDistance>20</MaxDistance>
    <DistanceType>AirDistance</DistanceType>
  </Volunteer>
  <Volunteer>
    <Id>241788264</Id>
    <Name>Emma Brown</Name>
    <Phone>0503298023</Phone>
    <Email>emmabrown@gmail.com</Email>
    <Password>e638a378189a4e046fcf4df23e2ada8320be81e6af6b113e329a3083131bd47f</Password>
    <Address>Eiffel Tower, Champ de Mars, Paris, France</Address>
    <Latitude>48.8584</Latitude>
    <Longitude>139.7454</Longitude>
    <Jobs>Worker</Jobs>
    <active>true</active>
    <MaxDistance>40</MaxDistance>
    <DistanceType>AirDistance</DistanceType>
  </Volunteer>
  <Volunteer>
    <Id>268895570</Id>
    <Name>James White</Name>
    <Phone>0501502840</Phone>
    <Email>jameswhite@gmail.com</Email>
    <Password>9978b97b65a971424030e3b964796c5f0cf4973fd3ab0f237ab996e3a25fbe6c</Password>
    <Address>Brandenburg Gate, Berlin, Germany</Address>
    <Latitude>35.6586</Latitude>
    <Longitude>34.7806</Longitude>
    <Jobs>Worker</Jobs>
    <active>true</active>
    <MaxDistance>25</MaxDistance>
    <DistanceType>AirDistance</DistanceType>
  </Volunteer>
  <Volunteer>
    <Id>390039642</Id>
    <Name>Sophia Black</Name>
    <Phone>0504762708</Phone>
    <Email>sophiablack@gmail.com</Email>
    <Password>9ad4ba1d18c2e1845a17c37385761777c166c3a2e9ee7300462f1f2770e5e84d</Password>
    <Address>Sagrada Familia, Barcelona, Spain</Address>
    <Latitude>40.775</Latitude>
    <Longitude>78.0421</Longitude>
    <Jobs>Worker</Jobs>
    <active>false</active>
    <MaxDistance>27</MaxDistance>
    <DistanceType>AirDistance</DistanceType>
  </Volunteer>
  <Volunteer>
    <Id>347811671</Id>
    <Name>Benjamin Blue</Name>
    <Phone>0506133926</Phone>
    <Email>benjaminblue@gmail.com</Email>
    <Password>2fa6c8ef93ae34c52303698cdc11edd889e74e961f190becde98768fd8558de4</Password>
    <Address>Kikar Rabin, Tel Aviv-Yafo, Israel</Address>
    <Latitude>32.0809</Latitude>
    <Longitude>2.2945</Longitude>
    <Jobs>Worker</Jobs>
    <active>true</active>
    <MaxDistance>48</MaxDistance>
    <DistanceType>AirDistance</DistanceType>
  </Volunteer>
  <Volunteer>
    <Id>373571538</Id>
    <Name>Olivia Silver</Name>
    <Phone>0505880449</Phone>
    <Email>oliviasilver@gmail.com</Email>
    <Password>a9a649ed1f1f06ecb4e7646ce235cacd3c666f9b7cc93fc1a7dc340e1870c866</Password>
    <Address>221B Baker Street, London, NW1 6XE, UK</Address>
    <Latitude>35.6586</Latitude>
    <Longitude>2.2945</Longitude>
    <Jobs>Worker</Jobs>
    <active>true</active>
    <MaxDistance>37</MaxDistance>
    <DistanceType>AirDistance</DistanceType>
  </Volunteer>
  <Volunteer>
    <Id>348132325</Id>
    <Name>Noah Gray</Name>
    <Phone>0506715002</Phone>
    <Email>noahgray@gmail.com</Email>
    <Password>b0ebe5c9b2446fbec1d8f005b78917b3691f21af3e5b1e1b330eadea2dfd8b8d</Password>
    <Address>Sydney Opera House, Sydney, Australia</Address>
    <Latitude>32.0809</Latitude>
    <Longitude>-122.0841</Longitude>
    <Jobs>Worker</Jobs>
    <active>true</active>
    <MaxDistance>17</MaxDistance>
    <DistanceType>AirDistance</DistanceType>
  </Volunteer>
  <Volunteer>
    <Id>223509548</Id>
    <Name>Emily Rose</Name>
    <Phone>0508229074</Phone>
    <Email>emilyrose@gmail.com</Email>
    <Password>716b43c71c57cc50d7437666ec597d1d941e38ee420ad7b2c8b4e8db52248c6e</Password>
    <Address>Taj Mahal, Agra, India</Address>
    <Latitude>52.5163</Latitude>
    <Longitude>13.3777</Longitude>
    <Jobs>Worker</Jobs>
    <active>true</active>
    <MaxDistance>40</MaxDistance>
    <DistanceType>AirDistance</DistanceType>
  </Volunteer>
  <Volunteer>
    <Id>240043828</Id>
    <Name>Ethan Adler</Name>
    <Phone>0507773573</Phone>
    <Email>ethanadler@gmail.com</Email>
    <Password>9576af00ec4cf1a2428475f002e055909ea8763570ad24f53326e5628dcb70ca</Password>
    <Address>Sydney Opera House, Sydney, Australia</Address>
    <Latitude>-33.8568</Latitude>
    <Longitude>2.1744</Longitude>
    <Jobs>Worker</Jobs>
    <active>true</active>
    <MaxDistance>42</MaxDistance>
    <DistanceType>AirDistance</DistanceType>
  </Volunteer>
  <Volunteer>
    <Id>240863548</Id>
    <Name>Mia Kaplan</Name>
    <Phone>0506315018</Phone>
    <Email>miakaplan@gmail.com</Email>
    <Password>36c66e1619bb75d3105df0c8a5cef5ca91246295ad4ec42a0acaf6a9c7192c74</Password>
    <Address>1600 Amphitheatre Parkway, Mountain View, CA, USA</Address>
    <Latitude>27.1751</Latitude>
    <Longitude>2.1744</Longitude>
    <Jobs>Worker</Jobs>
    <active>true</active>
    <MaxDistance>45</MaxDistance>
    <DistanceType>AirDistance</DistanceType>
  </Volunteer>
  <Volunteer>
    <Id>220010219</Id>
    <Name>Jacob Fisher</Name>
    <Phone>0508753160</Phone>
    <Email>jacobfisher@gmail.com</Email>
    <Password>78bc72574014639858c5b0f3cf40ebdad54260377d3e15445e834f21953fc433</Password>
    <Address>Sagrada Familia, Barcelona, Spain</Address>
    <Latitude>37.422</Latitude>
    <Longitude>13.3777</Longitude>
    <Jobs>Worker</Jobs>
    <active>true</active>
    <MaxDistance>20</MaxDistance>
    <DistanceType>AirDistance</DistanceType>
  </Volunteer>
	<Volunteer>
		<Id>327883138</Id>
		<Name>Chani</Name>
		<Phone>0501185761</Phone>
		<Email>jacobfisher@gmail.com</Email>
		<Password>588010cc6e63c96a12ab178b1aef73d6a1ff20626053a54d361bc2d8e30a3877</Password>
		<Address>Kikar Rabin, Tel Aviv-Yafo, Israel</Address>
		<Latitude>40.775</Latitude>
		<Longitude>2.1744</Longitude>
		<Jobs>Administrator</Jobs>
		<active>true</active>
		<MaxDistance>40</MaxDistance>
		<DistanceType>AirDistance</DistanceType>
	</Volunteer>
	<Volunteer>
		<Id>65678765</Id>
		<Name>asdfg</Name>
		<Phone />
		<Email>b@b.com</Email>
		<Password>6139c12653a1941a1d37e3925b748602b34ba68146b724083676a30ca3d267c6</Password>
		<Address>aa</Address>
		<Latitude>51.5331324</Latitude>
		<Longitude>5.6437768</Longitude>
		<Jobs>Worker</Jobs>
		<active>true</active>
		<MaxDistance xsi:nil="true" />
		<DistanceType>AirDistance</DistanceType>
	</Volunteer>
	<Volunteer>
		<Id>327842290</Id>
		<Name>Sari</Name>
		<Phone />
		<Email>s@s.com</Email>
		<Password>29ee2d8627df43f8c6641e771e82af9c2439eb4dedea849870758b303bf74905</Password>
		<Address>Sydney Opera House, Sydney, Australia</Address>
		<Latitude>-33.857841</Latitude>
		<Longitude>151.214882</Longitude>
		<Jobs>Worker</Jobs>
		<active>true</active>
		<MaxDistance>10000</MaxDistance>
		<DistanceType>AirDistance</DistanceType>
	</Volunteer>
</ArrayOfVolunteer>