<?xml version="1.0" encoding="utf-8"?>
<ArrayOfVolunteer xmlns:xsi="http://www.w3.org/2001/XMLSchema-instance" xmlns:xsd="http://www.w3.org/2001/XMLSchema">
  <Volunteer>
    <Id>397441171</Id>
    <Name>David Cohen</Name>
    <Phone>0501199271</Phone>
    <Email>davidcohen@gmail.com</Email>
    <Password>6b72d94c7e5e3c7882ef22aae51ad737bdb2218c75f57bdf1268435b978bd54e</Password>
    <Address>1600 Amphitheatre Parkway, Mountain View, CA, USA</Address>
    <Latitude>48.8584</Latitude>
    <Longitude>139.7454</Longitude>
    <Jobs>Administrator</Jobs>
    <active>true</active>
    <MaxDistance>20</MaxDistance>
    <DistanceType>AirDistance</DistanceType>
  </Volunteer>
  <Volunteer>
    <Id>321596793</Id>
    <Name>Sarah Levi</Name>
    <Phone>0504981268</Phone>
    <Email>sarahlevi@gmail.com</Email>
    <Password>ddce04126cf04982b4646a9a363b15c8f1f28c89b12552266e306cf65deed19b</Password>
    <Address>Eiffel Tower, Champ de Mars, Paris, France</Address>
    <Latitude>51.5238</Latitude>
    <Longitude>2.2945</Longitude>
    <Jobs>Worker</Jobs>
    <active>true</active>
    <MaxDistance>19</MaxDistance>
    <DistanceType>AirDistance</DistanceType>
  </Volunteer>
  <Volunteer>
    <Id>353275597</Id>
    <Name>Michael Ben-David</Name>
    <Phone>0502559080</Phone>
    <Email>michaelben-david@gmail.com</Email>
    <Password>43743c12c708449c93704f63f2879079616387af3153302d1e774e8749e4886b</Password>
    <Address>Sydney Opera House, Sydney, Australia</Address>
    <Latitude>41.4036</Latitude>
    <Longitude>78.0421</Longitude>
    <Jobs>Worker</Jobs>
    <active>true</active>
    <MaxDistance>31</MaxDistance>
    <DistanceType>AirDistance</DistanceType>
  </Volunteer>
  <Volunteer>
    <Id>317320828</Id>
    <Name>Rachel Gold</Name>
    <Phone>0502012717</Phone>
    <Email>rachelgold@gmail.com</Email>
    <Password>7a65b005fb3a338f83b552c924f375d0ef044b20a096cee4b83afded9d203555</Password>
    <Address>Tokyo Tower, Tokyo, Japan</Address>
    <Latitude>51.5238</Latitude>
    <Longitude>34.7806</Longitude>
    <Jobs>Worker</Jobs>
    <active>true</active>
    <MaxDistance>28</MaxDistance>
    <DistanceType>AirDistance</DistanceType>
  </Volunteer>
  <Volunteer>
    <Id>201344660</Id>
    <Name>Daniel Green</Name>
    <Phone>0507817614</Phone>
    <Email>danielgreen@gmail.com</Email>
    <Password>10a129c0d2f3c6151ba449a483728e8ef19b4f619d9915a5088a6385deb26440</Password>
    <Address>Eiffel Tower, Champ de Mars, Paris, France</Address>
    <Latitude>35.6586</Latitude>
    <Longitude>78.0421</Longitude>
    <Jobs>Worker</Jobs>
    <active>true</active>
    <MaxDistance>31</MaxDistance>
    <DistanceType>AirDistance</DistanceType>
  </Volunteer>
  <Volunteer>
    <Id>396395733</Id>
    <Name>Emma Brown</Name>
    <Phone>0504187348</Phone>
    <Email>emmabrown@gmail.com</Email>
    <Password>fb44659371266e6379e8db3f641961ea8fba149a72455ece641fc570ee3474a4</Password>
    <Address>5th Avenue, New York, NY, USA</Address>
    <Latitude>37.422</Latitude>
    <Longitude>13.3777</Longitude>
    <Jobs>Worker</Jobs>
    <active>true</active>
    <MaxDistance>15</MaxDistance>
    <DistanceType>AirDistance</DistanceType>
  </Volunteer>
  <Volunteer>
    <Id>360091789</Id>
    <Name>James White</Name>
    <Phone>0506010569</Phone>
    <Email>jameswhite@gmail.com</Email>
    <Password>be9d469a9d90c902836a14d64353a4dd8f43745283327d5571b3e6615385e085</Password>
    <Address>Eiffel Tower, Champ de Mars, Paris, France</Address>
    <Latitude>27.1751</Latitude>
    <Longitude>151.2153</Longitude>
    <Jobs>Worker</Jobs>
    <active>false</active>
    <MaxDistance>24</MaxDistance>
    <DistanceType>AirDistance</DistanceType>
  </Volunteer>
  <Volunteer>
    <Id>303369367</Id>
    <Name>Sophia Black</Name>
    <Phone>0505204847</Phone>
    <Email>sophiablack@gmail.com</Email>
    <Password>51fd4c86277f9f7afc41ae52377ebdcd1dcb9e2ec480edc915e1fa7a7032e1d4</Password>
    <Address>Sydney Opera House, Sydney, Australia</Address>
    <Latitude>32.0809</Latitude>
    <Longitude>2.2945</Longitude>
    <Jobs>Worker</Jobs>
    <active>true</active>
    <MaxDistance>30</MaxDistance>
    <DistanceType>AirDistance</DistanceType>
  </Volunteer>
  <Volunteer>
    <Id>316573641</Id>
    <Name>Benjamin Blue</Name>
    <Phone>0509163663</Phone>
    <Email>benjaminblue@gmail.com</Email>
    <Password>69cf3323ce0c3bb6157687b3d18da08cbc201156b683f85c946df1958e5d7067</Password>
    <Address>Brandenburg Gate, Berlin, Germany</Address>
    <Latitude>35.6586</Latitude>
    <Longitude>-122.0841</Longitude>
    <Jobs>Worker</Jobs>
    <active>true</active>
    <MaxDistance>49</MaxDistance>
    <DistanceType>AirDistance</DistanceType>
  </Volunteer>
  <Volunteer>
    <Id>272788027</Id>
    <Name>Olivia Silver</Name>
    <Phone>0501587370</Phone>
    <Email>oliviasilver@gmail.com</Email>
    <Password>bbffd5c03d496f0acab91d6b3ec97ce6e300b507796b2bc1f8ef6b17675c8eba</Password>
    <Address>Taj Mahal, Agra, India</Address>
    <Latitude>-33.8568</Latitude>
    <Longitude>-73.9654</Longitude>
    <Jobs>Worker</Jobs>
    <active>true</active>
    <MaxDistance>15</MaxDistance>
    <DistanceType>AirDistance</DistanceType>
  </Volunteer>
  <Volunteer>
    <Id>239296569</Id>
    <Name>Noah Gray</Name>
    <Phone>0502381877</Phone>
    <Email>noahgray@gmail.com</Email>
    <Password>33ec9dd3693b7fea5eb62a53634752967f228cf2c3b5dc73f2000fb65c86cd7d</Password>
    <Address>Eiffel Tower, Champ de Mars, Paris, France</Address>
    <Latitude>51.5238</Latitude>
    <Longitude>2.1744</Longitude>
    <Jobs>Worker</Jobs>
    <active>true</active>
    <MaxDistance>45</MaxDistance>
    <DistanceType>AirDistance</DistanceType>
  </Volunteer>
  <Volunteer>
    <Id>243200193</Id>
    <Name>Emily Rose</Name>
    <Phone>0505170955</Phone>
    <Email>emilyrose@gmail.com</Email>
    <Password>3be530ef52b1d76cc74fd93cfdac26b1287f96c1fa3ce758eba196390dcc45e0</Password>
    <Address>Taj Mahal, Agra, India</Address>
    <Latitude>41.4036</Latitude>
    <Longitude>2.2945</Longitude>
    <Jobs>Worker</Jobs>
    <active>true</active>
    <MaxDistance>25</MaxDistance>
    <DistanceType>AirDistance</DistanceType>
  </Volunteer>
  <Volunteer>
    <Id>206949844</Id>
    <Name>Ethan Adler</Name>
    <Phone>0506358445</Phone>
    <Email>ethanadler@gmail.com</Email>
    <Password>117d27cef316716925d0304d5abd6832b8761700c0613c15ba3b11dffb9ae03a</Password>
    <Address>221B Baker Street, London, NW1 6XE, UK</Address>
    <Latitude>51.5238</Latitude>
    <Longitude>139.7454</Longitude>
    <Jobs>Worker</Jobs>
    <active>true</active>
    <MaxDistance>19</MaxDistance>
    <DistanceType>AirDistance</DistanceType>
  </Volunteer>
  <Volunteer>
    <Id>339807901</Id>
    <Name>Mia Kaplan</Name>
    <Phone>0507195053</Phone>
    <Email>miakaplan@gmail.com</Email>
    <Password>35fdac50bada7517dff51a4aa12acecdd4c5d2436a0b9dcfe42a201edb0761b2</Password>
    <Address>Taj Mahal, Agra, India</Address>
    <Latitude>37.422</Latitude>
    <Longitude>13.3777</Longitude>
    <Jobs>Worker</Jobs>
    <active>false</active>
    <MaxDistance>28</MaxDistance>
    <DistanceType>AirDistance</DistanceType>
  </Volunteer>
  <Volunteer>
    <Id>244529814</Id>
    <Name>Jacob Fisher</Name>
    <Phone>0509606838</Phone>
    <Email>jacobfisher@gmail.com</Email>
    <Password>5cba02159920b75cb342eb72d1666c67c7a6a30637f9dc20f59cb0480204099e</Password>
    <Address>Kikar Rabin, Tel Aviv-Yafo, Israel</Address>
    <Latitude>51.5238</Latitude>
    <Longitude>-73.9654</Longitude>
    <Jobs>Worker</Jobs>
    <active>true</active>
    <MaxDistance>33</MaxDistance>
    <DistanceType>AirDistance</DistanceType>
  </Volunteer>
<Volunteer>
    <Id>327883138</Id>
    <Name>aa</Name>
    <Phone>1234567890</Phone>
    <Email>c@c.com</Email>
    <Password>588010cc6e63c96a12ab178b1aef73d6a1ff20626053a54d361bc2d8e30a3877</Password>
    <Address>aa</Address>
    <Latitude>51.5331324</Latitude>
    <Longitude>5.6437768</Longitude>
    <Jobs>Administrator</Jobs>
    <active>true</active>
    <MaxDistance>11</MaxDistance>
    <DistanceType>AirDistance</DistanceType>
  </Volunteer>
  <Volunteer>
    <Id>327842290</Id>
    <Name>bbvvvvvv</Name>
    <Phone>1234567890</Phone>
    <Email>s@s.com</Email>
    <Password>29ee2d8627df43f8c6641e771e82af9c2439eb4dedea849870758b303bf74905</Password>
    <Address>aa</Address>
    <Latitude>51.5331324</Latitude>
    <Longitude>5.6437768</Longitude>
    <Jobs>Worker</Jobs>
    <active>true</active>
    <MaxDistance xsi:nil="true" />
    <DistanceType>AirDistance</DistanceType>
  </Volunteer>
  <Volunteer>
    <Id>323782508</Id>
    <Name />
    <Phone />
    <Email />
    <Password>a9d6466202bd0006cca54a54e100afa9ef5ff219ace79316a756b9ed3e943e0a</Password>
    <Address>aa</Address>
    <Latitude>51.5331324</Latitude>
    <Longitude>5.6437768</Longitude>
    <Jobs>Worker</Jobs>
    <active>true</active>
    <MaxDistance xsi:nil="true" />
    <DistanceType>AirDistance</DistanceType>
  </Volunteer>
  <Volunteer>
    <Id>65678765</Id>
    <Name>aaaaaaaa</Name>
    <Phone />
    <Email />
    <Password>62f59256083d348dd1e6af18692017512a2814032ac776f011eaced168e88d1d</Password>
    <Address>aa</Address>
    <Latitude>51.5331324</Latitude>
    <Longitude>5.6437768</Longitude>
    <Jobs>Worker</Jobs>
    <active>false</active>
    <MaxDistance xsi:nil="true" />
    <DistanceType>AirDistance</DistanceType>
  </Volunteer>
</ArrayOfVolunteer>